stop_id,stop_long,stop_lat,stop_name
1162,26.12598,44.45089,BUCUR OBOR
3799,,,HALELE OBOR
4055,,,PIATA OBOR
2594,26.134882,44.445912,SOSEAUA PANTELIMON
1034,26.141905,44.444267,BAICULUI
1035,26.149867,44.442499,SOSEAUA IANCULUI
243,26.157121,44.442015,BD.CHISINAU
2445,26.158313,44.438151,PICTOR HARLESCU
1039,26.160116,44.43417,BD. NICOLAE GRIGORESCU
925,26.16204,44.428696,PARCUL TITAN
377,26.163232,44.424406,LIVIU REBREANU
1042,26.164146,44.420811,POLICLINICA TITAN
1043,26.164783,44.416525,POSTAVARULUI
2446,26.167353,44.416004,SOLD. MIHALE STELIAN
1044,26.172499,44.417329,CODRII NEAMTULUI
1045,26.176293,44.41831,BD. 1 DECEMBRIE 1918
4319,,,COMPLEX COMERCIAL TITAN
3886,26.179506,44.427341,FAUR
1000,26.178914,44.426235,FAUR
4321,,,COMPLEX COMERCIAL TITAN
1002,26.175932,44.418631,BD. 1 DECEMBRIE 1918
1003,26.172045,44.417482,CODRII NEAMTULUI
1004,26.166218,44.415953,BD. NICOLAE GRIGORESCU
1005,26.165228,44.416752,POSTAVARULUI
1006,26.164434,44.421372,POLICLINICA TITAN
922,26.163391,44.425512,LIVIU REBREANU
1008,26.162151,44.429795,CONSTANTIN BRANCUSI
1009,26.160006,44.435462,BD. BASARABIA
1010,26.15844,44.438767,PICTOR HARLESCU
1036,26.156133,44.4432,BD. CHISINAU
1013,26.148864,44.443815,SOSEAUA IANCULUI
1014,26.140813,44.444666,BAICULUI
776,26.133908,44.445959,SOSEAUA PANTELIMON
777,26.130396,44.444446,SOSEAUA MIHAI BRAVU
180,26.12738,44.445512,SOSEAUA MIHAI BRAVU 33
4343,26.125394,44.449166,BUCUR OBOR
1047,26.16869,44.436497,BD. BASARABIA
2233,26.162625,44.413404,PIATA TITAN
2234,26.158547,44.413698,ILIOARA
1050,26.152357,44.414367,FIZICIENILOR
4491,26.148581,44.408796,TANDAREI
4464,26.144735,44.407152,ENERGETICIENILOR
4494,26.140898,44.40771,COMPLEX COMERCIAL VITAN
2752,26.142241,44.404169,POD VITAN
1054,26.142603,44.39844,COMPLEX COMERCIAL VITAN BARZES
118,26.142322,44.390992,SPITALUL SF. IOAN
4273,,,INML
1056,26.138718,44.385022,SOSEAUA OLTENITEI
1057,26.132521,44.379704,CARTIER APARATORII PATRIEI
1058,26.126859,44.37917,EMIL RACOVITA
2509,26.123527,44.378086,CICEU
1059,26.118528,44.376293,BD. ALEXANDRU OBREGIA
1060,26.1117,44.376187,DOROHOI
1061,26.105834,44.377014,IZVORUL OLTULUI
1062,26.102405,44.377484,UCEA
4334,26.098337,44.378057,RESITA
4104,26.093721,44.378679,LUICA
1270,26.091433,44.378163,ANGHEL ALEXANDRU
1271,26.089928,44.372995,RADUCANU CRISTEA
2239,26.08897,44.36931,C.F.R. PROGRESUL
2938,26.090201,44.366631,GARA PROGRESUL
424,,,GARA PROGRESUL
1957,26.089074,44.369134,C.F.R. PROGRESUL
1276,26.090373,44.373582,RADUCANU CRISTEA
1277,26.090818,44.37883,LUICA
1066,26.100069,44.377695,RESITA
1067,26.102622,44.377357,UCEA
1068,26.093769,44.371761,IZVORUL OLTULUI
1069,26.111358,44.376121,BD. CONSTANTIN BRANCOVEANU
931,26.121556,44.377233,BD. ALEXANDRU OBREGIA
2675,26.124363,44.378187,CICEU
90,26.128187,44.379306,EMIL RACOVITA
1071,26.135481,44.380382,CARTIER APARATORII PATRIEI
4154,26.186865,44.4397,CORA PANTELIMON
4155,26.182572,44.440833,GRANITUL
4157,26.164971,44.442782,SOSEAUA FUNDENI
4158,,,SOSEAUA IANCULUI
796,26.145558,44.440047,AURA BUZESCU
2488,26.13629,44.437114,VATRA LUMINOASA
2210,26.131871,44.428048,DRISTORULUI
2,26.122484,44.426051,LUCIAN BLAGA
2213,26.11079,44.426584,BIBLIOTECA NATIONALA A ROMANIE
881,26.102144,44.429182,PIATA UNIRII
9,26.092057,44.433382,ELIE RADU
2229,26.083854,44.433969,POD HASDEU
1104,26.011737,44.411328,VALEA OLTULUI
4089,,,RAUL DOAMNEI
1346,26.035151,44.414664,BRASOV
749,26.035695,44.42209,PIATA DRUMUL TABEREI
751,26.045997,44.423875,FAVORIT
555,26.187207,44.433242,REPUBLICA
3638,26.191146,44.432351,GRUP SCOLAR IND. REPUBLICA
2435,26.194595,44.431585,MEIULUI
2436,26.197755,44.43087,COMPLEX COMERCIAL
2437,26.202366,44.429874,SCOALA GENERALA 55
2438,26.20797,44.428613,BUCUR
2439,26.21253,44.427602,SOLDAT RADU TINA
2935,26.215817,44.426799,CATANOAIA
112,26.220385,44.425038,SOSEAUA GARII CATELU
2441,,,I. C. M. E. POARTA 1
3097,26.218358,44.419313,FABRICA DE OXIGEN
2156,26.217888,44.415222,ISOVOLTA
1906,26.192104,44.440627,SOSEAUA DUDESTI-PANTELIMON
4156,26.174209,44.442257,SPITALUL PANTELIMON
795,26.145574,44.440041,BD. PIERRE DE COUBERTIN
797,26.140629,44.438737,LT. VICTOR MANU
2209,26.137711,44.431581,PIATA HURMUZACHI
2211,26.127232,44.425783,PIATA ALBA IULIA
2212,26.117979,44.42627,TRAIAN
2214,26.10477,44.426821,BD. I. C. BRATIANU
887,26.096833,44.430016,PIATA NATIUNILE UNITE
933,26.088518,44.433663,POD IZVOR
2230,26.080608,44.434168,OPERA NATIONALA
1740,26.077862,44.435001,OPERA NATIONALA
3136,26.023202,44.412636,GHIDIGENI
3474,26.026131,44.408858,DRUMUL COOPERATIVEI
4499,26.03463,44.418709,PARCUL DRUMUL TABEREI
750,26.042374,44.423192,DRUMUL TABEREI 35
518,26.05325,44.425342,ORIZONT
1086,26.100811,44.427187,PIATA UNIRII 1
2215,26.105033,44.426508,BD. I. C. BRATIANU
2221,26.113039,44.426192,BIBLIOTECA NATIONALA A ROMANIE
2222,26.120312,44.425877,TRAIAN
2247,26.124106,44.425661,LUCIAN BLAGA
2223,26.129931,44.426625,PIATA ALBA IULIA
2224,26.133286,44.428591,DRISTORULUI
2225,26.13764,44.431274,PIATA HURMUZACHI
2493,26.137269,44.43575,MAIOR CORAVU
816,26.137376,44.437707,SOSEAUA MIHAI BRAVU
817,26.140288,44.438466,LT. VICTOR MANU
3700,26.143121,44.439212,DUMITRU MARINESCU
818,26.1457,44.439894,AURA BUZESCU
819,26.150103,44.440936,BD. PIERRE DE COUBERTIN
4159,26.159181,44.442604,BD. CHISINAU
4160,26.167025,44.442331,SOSEAUA MORARILOR
4161,26.175622,44.441536,SPITALUL PANTELIMON
4162,26.182443,44.44022,GRANITUL
4153,,,CORA PANTELIMON
3471,26.054678,44.428226,BD. TIMISOARA
896,26.054499,44.433803,BD. IULIU MANIU
2457,26.059982,44.441266,PODUL GROZAVESTI
4248,,,SOSEAUA ORHIDEELOR
2459,,,CALEA PLEVNEI
1989,26.068945,44.448983,GARA BASARAB
1544,26.073911,44.445666,GARA DE NORD
2863,26.074274,44.448288,GARA DE NORD
2995,26.06896,44.450793,NICOLAE TITULESCU
3009,26.064405,44.453716,STOICA LUDESCU
2996,26.061748,44.45645,PASAJ GRANT
3086,26.060076,44.458413,CIMITIRUL SFANTA VINERI
3087,26.058596,44.460318,CARAIMAN
3164,26.057379,44.461873,GRIRO
3165,26.055604,44.464159,KIEV
3166,26.053922,44.466383,LAINICI
3234,26.052719,44.467912,R.A.R.
3170,26.051788,44.470508,CLABUCET
3445,26.059277,44.469208,AVIATOR POPISTEANU
3446,26.056507,44.472731,BD.EXPOZITIEI
3447,26.060714,44.473355,TRAIAN VASILE
3448,26.067863,44.474442,UNIVERSITATEA ROMANO-AMERICANA
197,,,SPITALUL CFR 2
3455,,,PIATA PRESEI
4240,,,PIATA PRESEI
3449,26.06607,44.474388,UNIVERSITATEA ROMANO-AMERICANA
3450,26.059861,44.473453,TRAIAN VASILE
3451,26.055769,44.472146,BD.EXPOZITIEI
903,26.058152,44.469255,AVIATOR POPISTEANU
3154,26.050462,44.470258,CLABUCET
3233,26.051804,44.468597,R.A.R.
3156,26.054201,44.46553,LAINICI
3157,26.055669,44.463608,KIEV
3158,26.057441,44.461338,GRIRO
3159,26.058598,44.460338,CARAIMAN
3160,26.060255,44.457746,CIMITIRUL SFANTA VINERI
3161,26.061838,44.455671,PASAJ GRANT
1192,26.109658,44.483924,PIPERA
4220,,,BARBU VACARESCU
2613,26.092564,44.479303,NICOLAE CARAMFIL
2615,26.087803,44.49265,APICOLA
1212,26.078488,44.494972,AEROPORTUL BANEASA
1214,26.062965,44.50092,BIOTERRA
4079,,,NUFERILOR
3047,26.062872,44.483143,COMBINATUL FONDULUI PLASTIC
2644,26.055301,44.485106,DRIDU
1219,26.040208,44.48389,BD. GLORIEI
3011,26.036195,44.489045,PARCUL BAZILESCU
1395,26.030454,44.4951,LAROMET
2573,26.026053,44.489432,MIHAI VITEAZUL
1123,,,PIATA DRUMUL TABEREI
4500,26.034294,44.417254,PARCUL DRUMUL TABEREI
637,26.033989,44.414101,BRASOV
2501,26.106357,44.429933,PIATA SFANTA VINERI
2010,26.103845,44.420522,BD. MARASESTI
684,26.099803,44.411165,ADESGO
1975,26.095502,44.40647,CIMITIRUL EROILOR REVOLUTIEI
3491,26.033925,44.434399,LUJERULUI
757,26.028823,44.434329,VETERANILOR
1282,26.023608,44.434291,RASARITULUI
766,26.021442,44.434232,PIATA GORJULUI
3334,26.023574,44.438079,ROSIA MONTANA
242,26.025235,44.440753,DEZROBIRII
244,26.021886,44.442203,CIMITIRUL MILITARI
3504,26.012282,44.440659,APUSULUI
2658,,,ARAGONITULUI
3318,26.015505,44.439507,GHIRLANDEI
3319,,,MARGELELOR
3320,26.00924,44.438102,BD. ANUL 1864
3321,26.005384,44.440402,CATINEI
1191,26.115432,44.487095,C.F.R. CONSTANTA
1193,26.103664,44.480598,MARIN DRACEA
1484,26.100933,44.479746,AUREL VLAICU
2614,26.092224,44.484662,PASAJUL AVIATIEI
3299,26.082916,44.494165,PIATA BANEASA
3145,26.073394,44.497861,BRODINA
3346,26.063548,44.493504,CORALILOR
2267,26.06554,44.488167,FORADEX
4053,,,JIULUI
318,26.048899,44.484419,DEPOZIT PAJURA
3112,26.03857,44.485994,TEATRUL MASCA
1221,26.033541,44.492432,JIMBOLIA
1467,26.027784,44.491584,OASULUI
3128,,,MEZES
1870,26.01631,44.487851,MAICA TEOFANA
4349,,,SOLD. ADRIAN PATRU
4320,,,COMPLEX COMERCIAL COLOSSEUM
4482,26.104301,44.414775,COLEGIUL NATIONAL GH. SINCAI
685,26.096627,44.408811,CUTITUL DE ARGINT
940,26.100205,44.401058,CIMITIRUL SERBAN VODA
2557,26.026689,44.489727,MIHAI VITEAZUL
4311,,,OASULUI
1825,26.03114,44.495119,LAROMET
1230,26.033935,44.491426,JIMBOLIA
3012,26.036973,44.487621,PARCUL BAZILESCU
3111,26.036374,44.488904,TEATRUL MASCA
3783,26.04141,44.483487,BD. GLORIEI
3782,26.048159,44.484241,DEPOZIT PAJURA
2638,26.005522,44.433962,DRIDU
3046,26.063345,44.483217,COMBINATUL FONDULUI PLASTIC
2266,26.064761,44.489705,FORADEX
4080,,,NUFERILOR
3348,26.0636,44.493883,CORALILOR
3326,26.063192,44.500676,FACULTATEA BIOTERRA
1238,26.073466,44.497678,BRODINA
286,26.080058,44.494286,SOSEAUA BUCURESTI-PLOIESTI
4604,,,CARTIER CONFORT URBAN
2895,26.066584,44.393437,SOSEAUA SALAJ
1289,26.069278,44.397508,COMPLEX COMERCIAL
1293,26.073243,44.40366,PECINEAGA
1099,26.07789,44.40866,CALEA FERENTARI
3288,26.080849,44.414275,SOSEAUA PROGRESULUI
642,26.082821,44.417903,PIATA CHIRIGIU
655,26.094831,44.423722,11 IUNIE
56,26.10529,44.399715,OPRIS ILIE
2231,26.109651,44.396923,BD. CONSTANTIN BRANCOVEANU
1388,26.109697,44.391399,SECUILOR
2178,26.109828,44.38911,SPITALUL DE COPII
1266,26.109877,44.38717,IZVORUL RECE
1267,26.109913,44.384433,IZVORUL CRISULUI
1268,26.109986,44.380774,LAMOTESTI
2478,26.110147,44.377195,TURNU MAGURELE
4594,,,PIATA PUCHENI
1290,26.069519,44.392783,BACAU
1292,26.071427,44.400811,AMURGULUI
947,26.075442,44.406819,FABRICA DE PAINE
3287,26.078462,44.411191,DOINA
4049,,,SOS. VIILOR
649,26.090237,44.421069,PIATA REGINA MARIA
623,26.10058,44.426687,PIATA UNIRII
2484,26.112117,44.427084,MIRCEA VODA
1994,26.101809,44.436239,PIATA 21 DECEMBRIE 1989
731,26.086921,44.434605,PIATA MIHAIL KOGALNICEANU
1377,26.073878,44.43531,SPITALUL UNIVERSITAR
2777,26.061529,44.430746,UNIVERSITATEA NATIONALA DE APA
2778,26.071679,44.424244,SPITALUL DR. TH. BURGHELE
1256,26.068938,44.421958,SOSEAUA PROGRESULUI
1962,26.057703,44.418106,PETRE ISPIRESCU
2564,26.047294,44.415493,GARLENI
3243,26.024831,44.41298,PRELUNGIREA GHENCEA
1130,26.017944,44.412138,VALEA OLTULUI
4083,26.00667,44.410692,ANSAMBLUL PRIMAVARA
4171,25.998088,44.409645,DRUMUL FUNIGEILOR
4448,25.990116,44.407747,CARTIERUL LATIN
785,26.071337,44.44274,WITING
2500,26.111505,44.431342,MATEI BASARAB
2933,26.09376,44.434734,GRADINA CISMIGIU
2575,26.080658,44.434477,FACULTATEA DE DREPT
1253,26.06992,44.43215,CAROL DAVILA
2821,26.068073,44.426339,DR. MIHAI CIUCA
1227,,,SOSEAUA PANDURILOR
1224,26.065009,44.420539,SEBASTIAN
1963,26.051746,44.416261,CIMITIRUL GHENCEA
201,26.042715,44.41521,CARTIER TUDOR VLADIMIRESCU
3475,26.030215,44.41365,DRUMUL COOPERATIVEI
1127,26.021528,44.412558,GHIDIGENI
3679,,,COSTISA
1830,26.001922,44.410205,SERE MILITARI
4465,25.994057,44.409018,MAGNOLIEI
1887,26.070578,44.437765,POD COTROCENI
477,26.076764,44.434799,POD EROILOR
2242,26.085143,44.433309,POD HASDEU
1083,26.097112,44.4293,PIATA NATIUNILE UNITE
2805,26.072918,44.436526,SPITALUL UNIVERSITAR
1041,26.080802,44.433608,FACULTATEA MEDICINA VETERINARA
1082,26.090799,44.432952,POD IZVOR
3680,,,COSTISA
2548,26.03481,44.414086,BRASOV
3487,26.044412,44.415109,GHENCEA
2565,26.048162,44.415374,GARLENI
1973,26.052658,44.416334,CIMITIRUL GHENCEA
2989,26.059848,44.418572,PETRE ISPIRESCU
1102,26.066446,44.420833,SEBASTIAN
1103,26.070648,44.422342,SOSEAUA PROGRESULUI
2779,26.071912,44.424697,SPITALUL DR. BURGHELE
1913,26.122928,44.4252,LUCIAN BLAGA
1812,26.125198,44.420559,BUCURESTI MALL
342,26.132849,44.414433,CALEA VITAN
4495,26.139385,44.408858,COMPLEX COMERCIAL VITAN
1988,26.123253,44.423127,PIATA VITAN
1992,26.128691,44.417553,ZIZIN
1516,26.135865,44.411225,STADION OLIMPIA
4463,26.145443,44.40683,ENERGETICIENILOR
4212,,,C.E.T. SUD VITAN
1519,26.148093,44.405637,C.E.T. SUD VITAN
1593,26.139122,44.359131,VULCAN BERCENI
3382,26.132149,44.366991,DUMITRU BRUMARESCU
3528,26.125901,44.365546,METRO BERCENI
3508,26.121975,44.373544,EDITURA ARAMIS
2192,26.134862,44.379367,CARTIER APARATORII PATRIEI
2193,26.1405,44.370304,BD. METALURGIEI
1331,26.145657,44.365364,I. M. G. B. POARTA 2
1624,26.140416,44.385508,SOSEAUA VITAN BARZESTI
4107,26.146784,44.38348,ROMPRIM
4106,26.145619,44.384023,ROMPRIM
1072,26.140114,44.386768,SOSEAUA OLTENITEI
1594,26.13606,44.362907,I.M.G.B. POARTA 3
4329,,,BD. METALURGIEI 136
1336,26.123046,44.371335,SERE
315,26.137577,44.375719,COMISANI
1330,26.143286,44.368353,I.M.G.B. POARTA 1
2891,26.148767,44.361316,UPETROLAM
3357,26.12309,44.408478,POD MIHAI BRAVU
1405,26.128002,44.412425,PENES CURCANUL
1886,26.13141,44.415854,SOSEAUA MIHAI BRAVU
1892,26.128327,44.418082,ZIZIN
1813,,,BUCURESTI MALL
1907,26.123496,44.423344,PIATA VITAN
1534,26.097161,44.443215,NICOLAE GOLESCU
1910,26.089174,44.443998,CALEA GRIVITEI
4370,,,MIRCEA VULCANESCU
735,26.06396,44.429553,SOSEAUA PANDURILOR
736,26.058416,44.426524,LT. NICOLAE GAINA
2039,26.047125,44.423092,FAVORIT
2041,26.041123,44.418488,DRUMETUL
4609,,,GARA BASARAB
3673,26.068108,44.44487,PRIMARIA SECTOR 6
4361,,,SOS. BERCENI 104 S
3987,,,SOS. BERCENI 104
4331,,,SOSEAUA DE CENTURA
2749,,,FACULTATIVA
2194,,,FACULTATIVA
2479,,,REMAT
963,,,PECO SILFLOR MOVE
2077,26.097585,44.445557,PIATA ROMANA
1374,26.093499,44.440274,LUTERANA
3376,26.083323,44.44329,POPA TATU
1376,26.080382,44.4398,BERZEI
2671,26.060516,44.428497,DRUMUL SARII
737,26.051206,44.425288,ORIZONT
4498,26.047095,44.419448,1 MAI
3106,,,CALEA GIULESTI
905,26.078396,44.444725,MINISTERUL TRANSPORTURILOR
2836,26.082042,44.445587,BUZESTI
3293,26.091656,44.445653,CALEA VICTORIEI
317,26.100631,44.446652,LICEUL EC. VIRGIL MADGEARU
1158,26.112926,44.445147,PIATA GEMENI
813,26.120487,44.440225,FOISORUL DE FOC
3361,26.120257,44.430136,MATEI BASARAB
215,,,AUREL VLAICU
3084,,,ANCUTA BANEASA
1154,26.101217,44.462293,GEORGE CALINESCU
904,26.078196,44.44226,BD. DINICU GOLESCU
205,26.07578,44.447069,GARA DE NORD
2841,26.089028,44.444749,BD.DACIA
3268,26.09589,44.446761,PIATA ROMANA
3568,26.108554,44.445934,PIATA SPANIEI
812,26.118742,44.443662,CALEA MOSILOR
3359,26.12064,44.432642,HALA TRAIAN
3362,26.118829,44.425293,BD.UNIRII
1348,26.103964,44.474935,SOSEAUA FABRICA DE GLUCOZA
1354,26.101871,44.465445,MIRCEA ELIADE
287,26.10087,44.460084,PIATA FLOREASCA
4450,26.104006,44.452809,STADIONUL DINAMO
2487,26.134455,44.439947,PIATA IANCULUI
1156,26.100676,44.454149,SOSEAUA STEFAN CEL MARE
2341,26.107639,44.447755,TEATRUL METROPOLIS
2486,26.123826,44.439455,SCOALA IANCULUI
3373,26.120774,44.431287,MATEI BASARAB
3374,26.121105,44.43346,HALA TRAIAN
800,26.120958,44.44059,FOISORUL DE FOC
801,26.117656,44.444189,CALEA MOSILOR
802,26.111257,44.445605,PIATA GEMENI
3569,26.107405,44.44621,PIATA SPANIEI
2409,26.100353,44.446845,CALEA DOROBANTILOR
803,26.09673,44.447365,PIATA ROMANA
4541,,,FIROS
4543,,,COMAT AUTO
2579,26.001762,44.428343,C.F.R. COTROCENI
899,26.013271,44.434098,APUSULUI
692,26.021559,44.433869,PIATA GORJULUI
697,26.029764,44.43405,VETERANILOR
2489,26.138422,44.428128,GHEORGHE PETRASCU
2490,26.137421,44.425663,BABA NOVAC
1410,26.13624,44.419589,CALEA DUDESTI
4608,,,C.E.T. VEST MILITARI
4542,,,ITIA
4337,,,VALEA CASCADELOR
2580,26.007395,44.433818,AUTOGARA MILITARI
681,26.015192,44.434098,VALEA LUNGA
1285,26.025323,44.43394,RASARITULUI
706,26.03609,44.434078,LUJERULUI
2492,26.138589,44.427807,GHEORGHE PETRASCU
116,26.13248,44.441164,PIATA IANCULUI
156,26.123094,44.439436,SCOALA IANCULUI
250,26.120731,44.439601,FOISORUL DE FOC
3935,,,MIHAI EMINESCU
3863,26.101312,44.452057,SOS.STEFAN CEL MARE
303,26.101011,44.460332,PIATA FLOREASCA
1137,26.101525,44.463007,GLINKA
1138,26.102167,44.466296,CEAIKOVSKI
1385,25.954073,44.435247,SOSEAUA DE CENTURA
2624,25.972492,44.435723,GRUP SCOLAR AUTO
2774,25.98924,44.434319,METRO MILITARI
2627,26.000056,44.433742,MASTER
2911,26.01822,44.431121,SCOALA GENERALA 309
708,26.04263,44.434165,LICEUL TUDOR VLADIMIRESCU
1273,26.048334,44.434215,U.P.B.
715,26.055221,44.434374,FACULTATEA ELECTRONICA
639,26.058369,44.434411,PIATA LEUL
1205,26.074236,44.423704,SOSEAUA PANDURILOR
3492,26.079008,44.425013,PIATA ARSENALULUI
3405,,,CASA ACADEMIEI
966,26.086355,44.430554,PALATUL PARLAMENTULUI
3284,26.083975,44.43098,BD. B.P.HASDEU
3307,25.957047,44.439003,CARREFOUR MILITARI
4034,,,COMPLEX COMERCIAL WEST PARK
2625,25.981894,44.434912,VICTORIA
2626,25.995328,44.433861,NUFARUL
3536,26.002859,44.433735,IMPRIMERIA NATIONALA
2937,26.018315,44.433937,PIATA GORJULUI
4047,,,PETUNIEI
2781,25.975016,44.512096,UNIV. NATIONALA DE APARARE
1394,26.058617,44.434705,PIATA LEUL
733,26.053344,44.43463,BD. G-RAL VASILE MILEA
1098,26.047515,44.434592,U.P.B.
756,26.042784,44.434495,LICEUL TUDOR VLADIMIRESCU
2506,26.033664,44.4344,LUJERULUI
768,26.015205,44.434118,VALEA LUNGA
781,26.013286,44.434105,APUSULUI
1341,26.005463,44.432943,BD. PRECIZIEI
1342,26.00207,44.428984,C.F.R. COTROCENI
4327,,,VALEA CASCADELOR
4544,,,COMAT AUTO
4168,,,COMPLEX COMERCIAL MILITARI
2832,26.017565,44.42605,FRIGOCOM
2860,26.02505,44.426702,ROMANCIERILOR
2905,26.029711,44.426995,COMPLEX COMERCIAL
2833,26.034456,44.427334,BRASOV
2834,26.041633,44.427877,SERGENT MOISE
2835,26.049074,44.428242,SIBIU
2842,26.055644,44.428617,BD. G-RAL VASILE MILEA
2843,26.05907,44.428825,PIATA DANNY HUWE
754,26.066172,44.428488,PROFESOR DR. RAINER
755,26.069943,44.432159,CAROL DAVILA
4525,26.077417,44.433962,PIATA OPEREI
4526,26.075603,44.436237,STIRBEI VODA
1401,26.08041,44.439529,BERZEI
4507,26.085267,44.440049,CONSTANTIN CRISTESCU
1402,26.08917,44.439741,CISMIGIU
3630,,,CARTIER MILITARI
2844,,,PIATA DANNY HUWE
2845,26.053114,44.42871,BD. G-RAL VASILE MILEA
2847,26.048099,44.428402,SIBIU
2848,26.03997,44.428077,SERGENT MOISE
2849,26.031871,44.427379,BRASOV
2906,26.028248,44.427069,COMPLEX COMERCIAL
2861,26.023625,44.426793,ROMANCIERILOR
2850,26.016641,44.42616,FRIGOCOM
4048,,,PETUNIEI
2910,26.018772,44.431533,SCOALA GENERALA 309
3052,26.012455,44.434524,PIATA GORJULUI
2628,26.00557,44.433967,VALEA CASCADELOR
3535,26.002166,44.433933,IMPRIMERIA NATIONALA
2629,25.999155,44.433914,MASTER
2630,25.995086,44.434031,NUFARUL
1561,26.080941,44.390308,VALTOAREI
1563,26.082973,44.398468,PIATA FERENTARILOR
1565,26.070851,44.400917,SOSEAUA SALAJ
3821,26.063561,44.406725,PIATA RAHOVA
2939,26.099043,44.440546,BD. NICOLAE BALCESCU
1560,26.078094,44.386843,ZETARILOR
1562,26.082549,44.392634,VADUL NOU
1564,26.077118,44.400312,ARMISTITIULUI
1566,26.066856,44.403526,CAP. PREDA
855,26.059077,44.408142,MARGEANULUI
1588,26.086144,44.398391,PIATA FERENTARILOR
1590,26.090618,44.401437,SUHAIA
1326,26.120493,44.376157,PLATFORMA  METALURGIEI
1017,26.128259,44.454134,ZIDURI MOSI
2118,26.132863,44.461044,DOAMNA GHICA
2119,26.13901,44.457065,SCUT - GHERASE
2123,26.142366,44.453504,DUMITRU SLUGERU
2540,26.007616,44.478744,MAGAZIILE 16 FEBRUARIE
4489,26.013898,44.474099,MUZEUL CULTURII ROMILOR
1838,26.020571,44.469943,CARTIER 16 FEBRUARIE
3656,26.029061,44.468238,INSTITUTUL PASTEUR
857,26.06059,44.41179,COMPLEX COMERCIAL
861,26.061444,44.414984,PETRE ISPIRESCU
862,26.05894,44.41797,CALEA 13 SEPTEMBRIE
863,26.0594,44.421236,NABUCULUI
4345,26.059496,44.426375,LT. NICOLAE GAINA
1589,26.087856,44.400362,ROCAR
1591,26.096219,44.404066,PIATA EROII REVOLUTIEI
1018,26.131339,44.458685,SUVEICA
4090,,,CONSTANTA
923,26.142972,44.455072,SCOALA GENERALA 145
2124,26.146487,44.451083,COMPLEX COMERCIAL
2541,26.006146,44.477047,CONDAX
4272,,,PODUL ILFOVAT
3701,26.025966,44.469159,DEPOUL GIULESTI
3703,26.031823,44.467364,COPSA MICA
3705,26.038995,44.46463,GODENI
3707,26.040243,44.459176,RUSETU
3659,,,MEHADIEI
1540,26.047597,44.4524,PIATA CRANGASI
4284,,,RASADNITEI
2544,26.003269,44.469919,SCOALA
1845,26.010175,44.467498,INTRAREA CARAMIDARIEI
3657,26.035611,44.466162,PIATA GIULESTI
3658,26.040942,44.462923,BD. CONSTRUCTORILOR
3775,,,COMPLEX COMERCIAL
3660,26.045695,44.453306,SOSEAUA CRANGASI
2570,26.052605,44.453547,BD. CEAHLAU
1542,26.061665,44.449478,SPITALUL DR. PANAIT SARBU
1842,26.000787,44.47142,GIULESTI SARBI
4285,,,GIULESTI SARBI
1844,26.006193,44.470509,SCULPTORILOR
2545,26.017055,44.46793,POIANA LACULUI
1541,26.055059,44.450252,PASAJ GRANT
1128,26.073065,44.439977,MIRCEA VULCANESCU
3704,26.031231,44.467663,COPSA MICA
3664,26.028662,44.468471,INSTITUTUL PASTEUR
3294,26.091688,44.44583,CALEA VICTORIEI
586,26.078871,44.437171,CASA STUDENTILOR
587,26.0826,44.436696,VASILE PARVAN
191,26.088273,44.444649,CALEA GRIVITEI
738,26.045196,44.424327,FAVORIT
4017,,,PASCAL CRISTIAN
4018,,,TIBLES
2567,26.050701,44.45365,BD. CEAHLAU
1556,26.047898,44.452878,PIATA CRANGASI
4019,,,SOS. CRANGASI
3661,26.042639,44.456583,MEHADIEI
3776,,,COMPLEX COMERCIAL
3708,26.040489,44.46015,RUSETU
3662,26.041417,44.462982,BD. CONSTRUCTORILOR
3706,26.038474,44.46508,GODENI
2562,26.094958,44.406576,PIATA EROII REVOLUTIEI
3502,,,DR. CONSTANTIN ISTRATI
1084,26.081367,44.417441,PIATA CHIRIGIU
4333,,,CALEA FERENTARI
4501,26.033192,44.418272,PARCUL DRUMUL TABEREI
1126,26.02473,44.416413,RAUL DOAMNEI
739,26.041219,44.423199,DRUMUL TABEREI 34
740,26.033721,44.422416,PIATA DRUMUL TABEREI
741,26.02946,44.422749,POIANA MUNTELUI
742,26.024533,44.423415,ROMANCIERILOR
157,26.019912,44.420509,PIATA VALEA IALOMITEI
1800,26.020356,44.417039,POSTA
4245,,,VALEA ARGESULUI
4246,,,VALEA DOFTANEI
4247,,,PARCUL CONSTANTIN BRANCUSI
4241,,,CARTIER CONSTANTIN BRANCUSI
4455,25.985572,44.417652,CARTIER CONSTANTIN BRANCUSI
2563,26.091121,44.4084,STEFAN HEPITES
2558,26.08602,44.414078,SPATARUL PREDA
1085,26.077345,44.415179,SOSEAUA PROGRESULUI
4461,26.069494,44.416802,PARCUL SEBASTIAN
1125,26.02793,44.417928,LICEUL EUGEN LOVINESCU
3995,,,COMPLEX COMERCIAL APUSULUI
3503,26.020018,44.443264,BD.UVERTURII
234,26.025868,44.440263,DEZROBIRII
236,26.034219,44.436478,PASAJ LUJERULUI
2569,26.03887,44.446581,POD CIUREL
996,26.079764,44.441822,PIATA VIRGILIU
198,,,G-RAL  ALEXANDRU CERNAT
4092,,,BD. IULIU MANIU
247,26.016871,44.440483,ARAGONITULUI
1295,26.022018,44.441995,CIMITIRUL MILITARI
235,26.029102,44.4387,TEATRUL MASCA
1999,26.035503,44.440525,ORSOVA
2412,26.072846,44.45191,PETRU RARES
1245,26.080066,44.451995,DR. FELIX
1416,26.098451,44.453684,PERLA
1356,26.094929,44.461856,PIATA DOROBANTILOR
1355,26.101769,44.465876,CALEA FLOREASCA
3889,26.074064,44.452518,BD. BANU MANTA
634,26.092363,44.452498,PASAJ VICTORIA
3666,26.095772,44.458212,LICEUL ION LUCA CARAGIALE
1353,26.095693,44.464367,SALA LUCIAN GRIGORESCU
1529,26.105826,44.465417,GARIBALDI
1554,26.061085,44.450233,SPITALUL DR. PANAIT SARBU
1555,26.057582,44.453853,PASAJ GRANT
2011,26.038449,44.446249,POD CIUREL
2012,26.035193,44.439561,ORSOVA
237,26.033444,44.436999,PASAJ LUJERULUI
238,26.030099,44.438517,TEATRUL MASCA
3996,,,COMPLEX COMERCIAL APUSULUI
4093,,,BD. IULIU MANIU
4221,,,DRUMUL COOPERATIVEI
4508,26.022954,44.406181,AREFULUI
3884,26.107926,44.464101,BARBU VACARESCU
3441,26.107315,44.462148,MIHAIL GLINKA
2581,26.106575,44.459843,ROSSINI
4203,,,BD. LACUL TEI
869,26.106703,44.457119,CIRCUL BUCURESTI
870,26.112823,44.459433,LUIGI GALVANI
871,26.119813,44.462014,MAICA DOMNULUI
1970,26.123888,44.463503,INSTITUTUL DE CONSTRUCTII
2978,26.125956,44.463783,TEIUL DOAMNEI
2979,26.126715,44.460038,GRIGORE IONESCU
1163,26.133867,44.463059,DOAMNA GHICA
3994,,,CREMENITA (PIATA COLENTINA)
1164,26.139939,44.467193,RAUL COLENTINA
1756,26.141406,44.471906,CARTIER COLENTINA
3244,26.146993,44.466642,RADOVANU
1757,26.149377,44.465418,ITCANI
1758,26.153265,44.463523,SPITALUL FUNDENI
3464,26.04436,44.414671,GHENCEA
4224,,,BASCOV
4509,26.017884,44.408024,DANTELEI
1797,26.029657,44.493553,LAROMET
1798,26.024031,44.50237,CIMITIRUL STRAULESTI
4075,26.026812,44.506198,SOS.BUCURESTI TARGOVISTE
4076,26.038821,44.504649,PISCUL SCOARTEI
4077,26.050392,44.503167,DRUMUL REGIMENTULUI
2073,26.059451,44.501948,BD. APICULTORILOR
644,26.078913,44.490839,POD BANEASA
4511,26.072833,44.477161,PIATA PRESEI
850,26.123253,44.463469,INSTITUTUL DE CONSTRUCTII
851,26.118279,44.461632,MAICA DOMNULUI
852,26.113605,44.459898,LUIGI GALVANI
853,26.10886,44.458136,CIRCUL BUCURESTI
2583,26.107245,44.461025,ROSSINI
1712,26.108125,44.463825,CEAIKOVSKI
1508,26.102886,44.465866,CALEA FLOREASCA
305,26.095839,44.465324,SALA LUCIAN GRIGORESCU
306,26.094504,44.461211,PIATA DOROBANTILOR
3667,26.09616,44.457083,LICEUL ION LUCA CARAGIALE
1421,26.098063,44.453766,SOSEAUA STEFAN CEL MARE
635,26.090742,44.452515,PASAJ VICTORIA
2497,26.081358,44.452213,DR. FELIX
3402,,,ANGHEL MOLDOVEANU
3505,,,DEPOUL GIURGIULUI
4163,26.18214,44.439729,GRANITUL
2420,26.029496,44.497666,PRECIZIA
4074,26.025062,44.502959,STRAND STRAULESTI
4137,26.035682,44.505286,LACUL GRIVITA
4087,26.043762,44.503978,PISCUL RADULUI
4078,26.055449,44.502472,DARMANESTI
1239,26.078254,44.494966,AEROPORTUL BANEASA
645,26.075747,44.484001,GARA BANEASA
3301,26.075572,44.471782,MUZEUL SATULUI
219,26.076896,44.467592,ARCUL DE TRIUMF
967,26.073502,44.468019,MANASTIREA CASIN
1491,26.066989,44.465369,PIATA DOMENII
4548,26.07013,44.463971,VASILE GHERGHEL
1199,26.07268,44.461908,BD. MARESAL AVERESCU
1200,26.076786,44.458724,PIATA ION MIHALACHE
4209,,,BD. BANU MANTA
2460,26.082849,44.453463,SPITALUL CLINIC FILANTROPIA
2163,26.084129,44.45135,PIATA VICTORIEI
2184,26.078317,44.447224,PIATA BUZESTI
2597,26.078294,44.447218,CALEA GRIVITEI
1179,26.075413,44.447289,GARA DE NORD
3443,,,TUDOR GOCIU
3506,,,POGOANELE
2451,26.079453,44.455812,BD. ION MIHALACHE
1183,26.077312,44.458662,PIATA ION MIHALACHE
1184,26.072142,44.462665,BD. MARESAL AVERESCU
1185,26.066909,44.465669,PIATA DOMENII
2268,26.062308,44.40373,PIATA RAHOVA
632,26.07382,44.41231,SEBASTIAN
732,26.076038,44.407812,CALEA FERENTARI
1287,26.072786,44.40329,PECINEAGA
1579,26.077799,44.400274,ARMISTITIULUI
1581,26.083075,44.393696,VADUL NOU
3267,,,ZETARILOR
3264,26.083979,44.381977,CIMITIRUL PROGRESUL
2070,26.05937,44.502168,BD. APICULTORILOR
4069,26.054775,44.502747,DARMANESTI
4070,26.049453,44.503397,DRUMUL REGIMENTULUI
3442,26.044186,44.414667,GHENCEA
1352,26.012807,44.421445,VALEA IALOMITEI
907,26.004338,44.424217,TEXTILA MILITARI
4539,,,FIROS
3515,,,C.E.T. PROGRESUL
3628,,,PIATA RESITA
949,26.098942,44.379345,PIATA RESITA
2269,26.0697,44.410132,PETRE ISPIRESCU
3050,26.076778,44.40935,NASAUD
2244,26.074943,44.406482,FABRICA DE PAINE
1578,26.071482,44.400307,SOSEAUA SALAJ
1580,26.083217,44.397898,PIATA FERENTARILOR
1582,26.080623,44.390155,VALTOAREI
3263,26.081466,44.383607,BACIULUI
4252,,,LUICA
3507,26.12188,44.373146,EDITURA ARAMIS
1327,26.123355,44.370199,SERE
3527,26.125887,44.36516,METRO BERCENI
4330,,,BD. METALURGIEI 136
3381,26.133104,44.366772,DUMITRU BRUMARESCU
906,26.010401,44.424678,VALEA OLTULUI
4540,,,ITIA
4607,,,C.E.T. VEST MILITARI
4195,,,PLATFORMA COMERCIALA ARCADE BE
3341,26.131704,44.383026,TOMESTI
165,26.125389,44.38972,AMIRO
936,26.115405,44.396161,HUSI
938,26.104406,44.400211,OPRIS ILIE
3827,26.088093,44.412157,DR. CONSTANTIN ISTRATI
2186,26.095307,44.420021,PARCUL CAROL I
2112,26.133845,44.380783,CARTIER APARATORII PATRIEI
2879,26.128281,44.386597,SPITALUL DR. MARINESCU
4451,26.122688,44.392762,PIATA SUDULUI
937,26.108389,44.398835,BD. CONSTANTIN BRANCOVEANU
939,26.098729,44.402099,CIMITIRUL SERBAN VODA
3828,,,AUTOGARA FILARET
2148,26.095521,44.423734,PATRIARHIA ROMANA
251,26.068563,44.437463,CAROL DAVILA
2110,26.122467,44.392627,PIATA SUDULUI
1223,26.211975,44.405204,INTRARE SAT CATELU
2160,26.218265,44.411147,C.F.R. CATELU
2157,26.218607,44.419633,FABRICA DE OXIGEN
4545,,,BALOTULUI
1759,26.157092,44.462309,INSTITUTUL ONCOLOGIC
2512,26.162726,44.456808,SPICULUI
193,26.076556,44.484446,GARA BANEASA
1914,26.202929,44.405944,COMPLEX RATB TITAN
1916,26.216423,44.406882,SAT CATELU
2139,26.156242,44.466806,SPITALUL FUNDENI
1174,26.103062,44.447924,SPORTULUI
1760,26.162326,44.458887,FUNDENI
3454,26.071854,44.47596,PIATA PRESEI
641,26.079776,44.490061,POD BANEASA
3786,26.084993,44.490645,HORIA MACELARIU
2043,26.01561,44.415664,VALEA ARGESULUI
746,26.0211,44.421521,PIATA VALEA IALOMITEI
748,26.030059,44.422226,POIANA MUNTELUI
3276,26.07025,44.45083,SOSEAUA NICOLAE TITULESCU
4197,,,BD. FICUSULUI
1211,26.085673,44.493135,ROMAERO
3526,,,VALEA OLTULUI
376,26.020586,44.418168,DRUMUL TABEREI 85
747,26.025964,44.422845,ROMANCIERILOR
1182,26.073856,44.453082,PRIMARIA SECTOR 1
648,26.07943,44.466939,ARCUL DE TRIUMF
969,26.075356,44.467783,MANASTIREA CASIN
1419,26.087567,44.46529,PIATA CHARLES DE GAULLE
2582,26.127367,44.464905,SOSEAUA PETRICANI
810,26.096715,44.447362,PIATA ROMANA
897,26.087928,44.451532,PIATA VICTORIEI
3277,26.138773,44.465552,MAIOR BACILA
4011,,,POIANA CU ALUNI
3278,,,RADOVANU
3279,,,MINERILOR
1403,26.100069,44.439047,BD.NICOLAE BALCESCU
895,26.092706,44.449173,POVERNEI
901,26.082779,44.453773,MUZEUL TARANULUI ROMAN
3281,26.140976,44.463373,RADOVANU
3282,26.139041,44.465469,MAIOR BACILA
1176,26.13724,44.466192,RAUL COLENTINA
3993,,,CREMENITA (PIATA COLENTINA)
1019,26.13165,44.462972,SOSEAUA COLENTINA
849,26.126813,44.465099,BD.LACUL TEI
2674,26.097316,44.446145,PIATA ROMANA
1195,26.09377,44.461118,PIATA DOROBANTILOR
3327,26.088894,44.473256,PARC HERASTRAU
1660,26.081065,44.503504,DRUMUL MATASII
5038,,,AMBASADA S.U.A.
3460,26.044275,44.414669,GHENCEA
1243,26.058566,44.417586,CALEA 13 SEPTEMBRIE
89,26.060072,44.410972,COMPLEX COMERCIAL
379,26.079201,44.490908,POD BANEASA
1677,26.077982,44.518483,ALEEA PRIVIGHETORILOR
1678,26.069721,44.530122,PASAJ C.F.R.OTOPENI
2143,26.063454,44.533425,SAT ODAI
2146,26.036016,44.524602,FERMA ODAI
2147,26.019908,44.517951,CIMITIRUL STRAULESTI
4208,,,BD. BANU MANTA
1889,26.061784,44.46776,SANDU ALDEA
636,,,CLABUCET
4401,26.099461,44.447441,A.S.E.
1197,26.08789,44.465398,PIATA CHARLES DE GAULLE
1659,26.079774,44.496501,AEROPORT BANEASA
1661,26.080672,44.513172,INSTITUTUL METEOROLOGIC
1663,26.086804,44.516839,PADUREA BANEASA
1247,26.061364,44.413966,MARGEANULUI
4064,,,BUZOIENI
4400,26.070861,44.52749,LICEUL FRANCEZ
8,26.067831,44.533975,PASAJ OTOPENI
2145,26.046282,44.528852,I. C. S. I. M.
4119,,,ADP SECTOR 1
4141,26.156041,44.424107,POD LACURI
719,26.143582,44.425212,ION TUCULESCU
726,26.119547,44.438777,TRAIAN
2405,26.110481,44.437089,ARMENEASCA
1007,26.162214,44.424894,LIVIU REBREANU
2622,26.150032,44.425634,SOSEAUA CAMPIA LIBERTATII
720,26.138281,44.424363,SOSEAUA MIHAI BRAVU
727,26.115112,44.437976,CALEA MOSILOR
2121,26.106533,44.436036,PIATA ROSETTI
690,26.124191,44.382952,ALIORULUI
935,26.118652,44.38878,NITU VASILE
930,26.120847,44.400336,PRIDVORULUI
92,26.119722,44.377608,TURNU MAGURELE
93,26.115552,44.382124,STRADUINTEI
95,26.117945,44.388616,EMIL RACOVITA
4338,,,COMPLEX COMERCIAL TITAN
3905,,,SOS. CAMPIA LIBERTATII
3847,26.138574,44.41991,DRISTORULUI
2809,26.123353,44.363225,PIATA DE GROS
689,26.126916,44.380043,ALEEA RAUL TARGULUI
3787,26.122153,44.385089,SPITALUL DR. ALEXANDRU OBREGIA
693,26.119897,44.391296,PIATA SUDULUI
999,26.121259,44.403853,COSTACHE STAMATE
2294,26.118236,44.379212,ALIORULUI
94,26.115773,44.384726,DRAGOS MLADINOVICI
921,26.169512,44.425153,BARAJUL DUNARII
3873,26.145786,44.418062,PIATA RAMNICU SARAT
245,26.137626,44.425086,BABA NOVAC
154,26.118531,44.452423,LIZEANU
3918,,,VASILE LASCAR
2637,26.051564,44.488245,CARTIER DAMAROAIA
117,26.132671,44.441807,PIATA IANCULUI
1320,26.114086,44.452911,DR. GROZOVICI
4449,26.10409,44.453157,STADIONUL DINAMO
3356,26.065988,44.480493,CITY CENTER
1420,26.094414,44.459715,PIATA  DOROBANTILOR
202,26.099352,44.445079,PIATA LAHOVARI
2639,26.063272,44.481519,HOTEL PARC
2640,26.069486,44.479224,CASA PRESEI
2485,26.099277,44.447586,A.S.E.
1304,26.112234,44.452778,VASILE LASCAR
3917,,,DR. GROZOVICI
2898,26.143026,44.442444,ZEFIRUL
1198,26.078322,44.467694,ARCUL DE TRIUMF
1441,26.073331,44.478135,PIATA PRESEI
1531,26.014178,44.438011,COMPLEX COMERCIAL APUSULUI
2248,26.147379,44.442939,SARAFINESTI
3302,26.075857,44.472012,MUZEUL SATULUI
950,26.101868,44.384984,STRAJA
951,26.109485,44.387502,BD. CONSTANTIN BRANCOVEANU
2786,26.115531,44.408597,PALATUL NATIONAL AL COPIILOR
821,26.110224,44.410672,VISANA
2670,26.081039,44.434363,FACULTATEA DE DREPT
758,26.08811,44.434806,PIATA MIHAIL KOGALNICEANU
2934,26.094497,44.434624,GRADINA CISMIGIU
4000,,,UNIVERSITATE
760,26.105419,44.436004,PIATA ROSETTI
2183,26.105059,44.388394,IZVORUL RECE
953,26.117045,44.38883,BD. ALEXANDRU OBREGIA
1012,26.120102,44.408075,BD.TINERETULUI
2019,26.11215,44.409788,PARCUL TINERETULUI
4478,26.104546,44.415056,COLEGIUL NATIONAL GH. SINCAI
2020,26.104165,44.420832,BD. MARASESTI
2943,26.047757,44.445175,SEMANATOAREA
4192,,,PRIMARIA MUNICIPIULUI BUCUREST
3485,26.029025,44.482626,MARMUREI
3644,26.038424,44.47879,MINERVA
829,26.044819,44.478056,DEPOUL BUCURESTII NOI
3697,26.043535,44.445976,SEMANATOAREA POARTA 2
2944,26.05272,44.444298,POLITEHNICA
3129,26.024009,44.484544,MEZES
3642,26.034925,44.4802,CRINULUI
3138,26.043428,44.476802,BD. BUCURESTII NOI
824,26.042803,44.4806,PAJUREI
273,26.021563,44.510173,BUZIAS
276,26.015328,44.515571,CFR CENTURA
272,26.025355,44.506939,DOI COCOSI
274,26.018955,44.512411,BD. PETRILA
474,26.015256,44.515442,C.F.R. CENTURA
651,26.022059,44.509576,BUZIAS
4613,,,STRAND STRAULESTI
2418,26.029487,44.497258,PRECIZIA
837,26.043,44.479879,PAJUREI
650,26.018966,44.512257,BD. PETRILA
652,26.024992,44.506941,DOI COCOSI
1824,26.027114,44.500324,CIMITIRUL STRAULESTI
2419,26.040547,44.482976,BD. GLORIEI
838,26.045114,44.477184,SOSEAUA CHITILEI
3137,26.044669,44.476823,SOSEAUA CHITILA
3645,26.037735,44.479321,MINERVA
3643,26.033624,44.48098,CRINULUI
3484,26.027872,44.48327,SUBCETATE
1869,,,MEZES
